{
    "type": "FeatureCollection",
    "features": [
      {
        "type": "Feature",
        "properties": {
          "name": "Rabale Police Station",
          "phone": "022 3290 1016",
          "zone": "1",
          "city": "Navi Mumbai"
        },
        "geometry": {
          "type": "Point",
          "coordinates": [
            73.00191712698344, 19.135740482791785 
          ]
        }
      },
      {   
        "type": "Feature",
        "properties": {
          "name": "Sanpada Police Station",
          "phone": "022 2775 1406",
          "zone": "1",
          "city": "Navi Mumbai"
        },
        "geometry": {
          "type": "Point",
          "coordinates": [
             73.01065005362562, 19.062687653048812
          ]
        }
      },
      
      {
        "type": "Feature",
        "properties": {
          "name": "Vashi Police Station",
          "phone": "022 2782 0346",
          "zone": "1",
          "city": "Navi Mumbai"
        },
        "geometry": {
          "type": "Point",
          "coordinates": [
            72.99485517210671, 19.072504413218798
          ]
        }
      },
      {
        "type": "Feature",
        "properties": {
          "name": "A.P.M.C Police Station",
          "phone": " 022 2783 8963",
          "zone": "1",
          "city": "Navi Mumbai"
        },
        "geometry": {
          "type": "Point",
          "coordinates": [
            75.72166870023779, 16.835776790766666
          ]
        }
      }, 
      {
        "type": "Feature",
        "properties": {
          "name": "Nerul Police Station",
          "phone": "022 2770 2324",
          "zone": "1",
          "city": "Navi Mumbai"
        },
        "geometry": {
          "type": "Point",
          "coordinates": [
            73.01895951635674, 19.028596231977357
          ]
        }
      } ,
      {
        "type": "Feature",
        "properties": {
          "name": "C.B.D Belapur Police Station",
          "phone": "022 2758 0255",
          "zone": "1",
          "city": "Navi Mumbai"
        },
        "geometry": {
          "type": "Point",
          "coordinates": [
            73.0413954997903, 19.025250159700246
          ]
        }
      } ,
      {
        "type": "Feature",
        "properties": {
          "name": "N.R.I Police Station",
          "phone": "022 2756 4404",
          "zone": "1",
          "city": "Navi Mumbai"
        },
        "geometry": {
          "type": "Point",
          "coordinates": [
            73.02863565687309, 19.008179288558217
          ]
        }
      } ,
      {
        "type": "Feature",
        "properties": {
          "name": "Koparkhairane Police Station",
          "phone": "022 2755 0777",
          "zone": "1",
          "city": "Navi Mumbai"
        },
        "geometry": {
          "type": "Point",
          "coordinates": [
            73.00169317022505, 19.11347034682477
          ]
        }
      } ,
      {
        "type": "Feature",
        "properties": {
          "name": "Turbhe MIDC Police Station",
          "phone": "022 2767 2375",
          "zone": "1",
          "city": "Navi Mumbai"
        },
        "geometry": {
          "type": "Point",
          "coordinates": [
            73.02022081361521, 19.06463321678386 
          ]
        }
      } ,
      {
        "type": "Feature",
        "properties": {
          "name": "Rabale Police Station (MIDC)",
          "phone": "022 2769 2519",
          "zone": "1",
          "city": "Navi Mumbai"
        },
        "geometry": {
          "type": "Point",
          "coordinates": [
            73.00114966292347, 19.146408324208373
          ]
        }
      } ,
    {
        "type": "Feature",
        "properties": {
          "name": "Kharghar Police Station",
          "phone": "+912227742500",
          "zone": "2",
          "city": "Navi Mumbai"
        },
        "geometry": {
          "type": "Point",
          "coordinates": [
           73.06813611240828, 19.034757793476288
          ]
        }
      },
    {
        "type": "Feature",
        "properties": {
          "name": "Panvel city Police Station",
          "phone": "+912227452333",
          "zone": "2",
          "city": "Navi Mumbai"
        },
        "geometry": {
          "type": "Point",
          "coordinates": [
            73.10565856637278 , 18.995346902265258
          ]
        }
      },
    {
        "type": "Feature",
        "properties": {
          "name": "Navin panvel Police Station",
          "phone": "02227452444",
          "zone": "2",
          "city": "Navi Mumbai"
        },
        "geometry": {
          "type": "Point",
          "coordinates": [
             73.12286757507623 , 18.998714655870735
          ]
        }
      },
    {
        "type": "Feature",
        "properties": {
          "name": "Kalamboli Police Station",
          "phone": "+912227423000",
          "zone": "2",
          "city": "Navi Mumbai"
        },
        "geometry": {
          "type": "Point",
          "coordinates": [
              73.10501785526715 , 19.024923251102592
          ]
        }
      },
    {
        "type": "Feature",
        "properties": {
          "name": "Taloja Police Station",
          "phone": "+912227412333",
          "zone": "2",
          "city": "Navi Mumbai"
        },
        "geometry": {
          "type": "Point",
          "coordinates": [
              73.11558958542614 , 19.061513052147397
          ]
        }
      },
    {
        "type": "Feature",
        "properties": {
          "name": "Mora sagri Police Station",
          "phone": "022 27224282",
          "zone": "2",
          "city": "Navi Mumbai"
        },
        "geometry": {
          "type": "Point",
          "coordinates": [
              72.92827609706158 , 18.910681379392354
          ]
        }
      },
    {
        "type": "Feature",
        "properties": {
          "name": "Nhavasheva Police Station",
          "phone": "+912227472264",
          "zone": "2",
          "city": "Navi Mumbai"
        },
        "geometry": {
          "type": "Point",
          "coordinates": [
              72.97749809520788 , 18.912559079962197
          ]
        }
      },
    {
        "type": "Feature",
        "properties": {
          "name": "Uran Police Station",
          "phone": "+912227222366",
          "zone": "2",
          "city": "Navi Mumbai"
        },
        "geometry": {
          "type": "Point",
          "coordinates": [
             72.93954791240606 , 18.880741870145755
          ]
        }
      },
    {
        "type": "Feature",
        "properties": {
          "name": "Khandeshawar Police Station",
          "phone": "+912227465338",
          "zone": "2",
          "city": "Navi Mumbai"
        },
        "geometry": {
          "type": "Point",
          "coordinates": [
            73.10991255288168 , 19.00731511358946
          ]
        }
      },
    {
        "type": "Feature",
        "properties": {
          "name": "Kamothe Police Station",
          "phone": "+912227431413",
          "zone": "2",
          "city": "Navi Mumbai"
        },
        "geometry": {
          "type": "Point",
          "coordinates": [
             73.09119134495164 , 19.022784605225834
          ]
        }
      }  
    ]
  }